{
    "Nodes": [
        {
            "NodeAttributes": {
                "Latitude": 11.0901,
                "Longitude": -73.4351,
                "InitialPopulation": 34188,
                "FacilityName": "Dibulla",
                "LarvalHabitatMultiplier": 0.7869
            },
            "NodeID": 5344090
        },
        {
            "NodeAttributes": {
                "Latitude": 11.2433,
                "Longitude": -72.9585,
                "InitialPopulation": 268712,
                "FacilityName": "Riohacha",
                "LarvalHabitatMultiplier": 6.1848
            },
            "NodeID": 5344001
        },
        {
            "NodeAttributes": {
                "Latitude": 10.8129,
                "Longitude": -73.085,
                "InitialPopulation": 37827,
                "FacilityName": "SanJuandelCesar",
                "LarvalHabitatMultiplier": 0.8706
            },
            "NodeID": 5344650
        },
        {
            "NodeAttributes": {
                "Latitude": 10.6351,
                "Longitude": -72.8829,
                "InitialPopulation": 8837,
                "FacilityName": "ElMolino",
                "LarvalHabitatMultiplier": 0.2034
            },
            "NodeID": 5344110
        },
        {
            "NodeAttributes": {
                "Latitude": 10.5839,
                "Longitude": -72.9743,
                "InitialPopulation": 27965,
                "FacilityName": "Villanueva",
                "LarvalHabitatMultiplier": 0.6437
            },
            "NodeID": 5344874
        },
        {
            "NodeAttributes": {
                "Latitude": 10.4943,
                "Longitude": -72.9843,
                "InitialPopulation": 18352,
                "FacilityName": "Urumita",
                "LarvalHabitatMultiplier": 0.4224
            },
            "NodeID": 5344855
        },
        {
            "NodeAttributes": {
                "Latitude": 10.4583,
                "Longitude": -73.0723,
                "InitialPopulation": 3253,
                "FacilityName": "LaJaguadelPilar",
                "LarvalHabitatMultiplier": 0.0749
            },
            "NodeID": 5344420
        },
        {
            "NodeAttributes": {
                "Latitude": 10.8267,
                "Longitude": -72.8007,
                "InitialPopulation": 33785,
                "FacilityName": "Fonseca",
                "LarvalHabitatMultiplier": 0.7776
            },
            "NodeID": 5344279
        },
        {
            "NodeAttributes": {
                "Latitude": 10.9894,
                "Longitude": -72.6866,
                "InitialPopulation": 35393,
                "FacilityName": "Barrancas",
                "LarvalHabitatMultiplier": 0.8146
            },
            "NodeID": 5344078
        },
        {
            "NodeAttributes": {
                "Latitude": 11.0991,
                "Longitude": -72.7328,
                "InitialPopulation": 25832,
                "FacilityName": "Hatonuevo",
                "LarvalHabitatMultiplier": 0.5946
            },
            "NodeID": 5344378
        },
        {
            "NodeAttributes": {
                "Latitude": 11.2291,
                "Longitude": -72.5322,
                "InitialPopulation": 27102,
                "FacilityName": "Albania",
                "LarvalHabitatMultiplier": 0.6238
            },
            "NodeID": 5344035
        },
        {
            "NodeAttributes": {
                "Latitude": 11.3808,
                "Longitude": -72.2956,
                "InitialPopulation": 159675,
                "FacilityName": "Maicao",
                "LarvalHabitatMultiplier": 3.6751
            },
            "NodeID": 5344430
        },
        {
            "NodeAttributes": {
                "Latitude": 11.9996,
                "Longitude": -71.7487,
                "InitialPopulation": 180385,
                "FacilityName": "Uribia",
                "LarvalHabitatMultiplier": 4.1518
            },
            "NodeID": 5344847
        },
        {
            "NodeAttributes": {
                "Latitude": 11.6055,
                "Longitude": -72.5714,
                "InitialPopulation": 108006,
                "FacilityName": "Manaure",
                "LarvalHabitatMultiplier": 2.4859
            },
            "NodeID": 5344560
        },
        {
            "NodeAttributes": {
                "Latitude": 10.9267,
                "Longitude": -72.9443,
                "InitialPopulation": 16140,
                "FacilityName": "Distraccion",
                "LarvalHabitatMultiplier": 0.3715
            },
            "NodeID": 5344098
        }
    ],
    "Defaults": {
        "NodeAttributes": {
            "Urban": 0,
            "AbovePoverty": 1,
            "Region": 1,
            "Seaport": 0,
            "BirthRate": 0,
            "Airport": 0,
            "Altitude": 0
        },
        "IndividualAttributes": {
            "PrevalenceDistributionFlag": 0,
            "PrevalenceDistribution1": 0,
            "PrevalenceDistribution2": 0,
            "AgeDistributionFlag": 1,
            "AgeDistribution1": 0,
            "AgeDistribution2": 18250,
            "ImmunityDistributionFlag": 0,
            "ImmunityDistribution1": 1,
            "ImmunityDistribution2": 0,
            "RiskDistributionFlag": 0,
            "RiskDistribution1": 1,
            "RiskDistribution2": 0
        }
    },
    "Metadata": {
        "Author": "ND Dynamics",
        "DateCreated": "10/02/2017",
        "IdReference": "LaGuajira",
        "NodeCount": 15,
        "Tool": "colombia_create_admin2_climate_demographics_files_IDCOL.R"
    }
}

