{
    "Nodes": [
        {
            "NodeAttributes": {
                "Latitude": -0.7159,
                "Longitude": -69.9087,
                "InitialPopulation": 968,
                "FacilityName": "Taraira",
                "LarvalHabitatMultiplier": 0.0223
            },
            "NodeID": 5397666
        },
        {
            "NodeAttributes": {
                "Latitude": 0.2287,
                "Longitude": -70.9722,
                "InitialPopulation": 5843,
                "FacilityName": "Pacoa",
                "LarvalHabitatMultiplier": 0.1345
            },
            "NodeID": 5397511
        },
        {
            "NodeAttributes": {
                "Latitude": 1.0842,
                "Longitude": -71.2915,
                "InitialPopulation": 3331,
                "FacilityName": "Caruru",
                "LarvalHabitatMultiplier": 0.0767
            },
            "NodeID": 5397161
        },
        {
            "NodeAttributes": {
                "Latitude": 1.6824,
                "Longitude": -70.7076,
                "InitialPopulation": 841,
                "FacilityName": "Papunaua",
                "LarvalHabitatMultiplier": 0.0194
            },
            "NodeID": 5397777
        },
        {
            "NodeAttributes": {
                "Latitude": 1.018,
                "Longitude": -70.4166,
                "InitialPopulation": 31861,
                "FacilityName": "Mitu",
                "LarvalHabitatMultiplier": 0.7333
            },
            "NodeID": 5397001
        },
        {
            "NodeAttributes": {
                "Latitude": 0.8332,
                "Longitude": -69.6187,
                "InitialPopulation": 1235,
                "FacilityName": "Yavarate",
                "LarvalHabitatMultiplier": 0.0284
            },
            "NodeID": 5397889
        }
    ],
    "Defaults": {
        "NodeAttributes": {
            "Urban": 0,
            "AbovePoverty": 1,
            "Region": 1,
            "Seaport": 0,
            "BirthRate": 0,
            "Airport": 0,
            "Altitude": 0
        },
        "IndividualAttributes": {
            "PrevalenceDistributionFlag": 0,
            "PrevalenceDistribution1": 0,
            "PrevalenceDistribution2": 0,
            "AgeDistributionFlag": 1,
            "AgeDistribution1": 0,
            "AgeDistribution2": 18250,
            "ImmunityDistributionFlag": 0,
            "ImmunityDistribution1": 1,
            "ImmunityDistribution2": 0,
            "RiskDistributionFlag": 0,
            "RiskDistribution1": 1,
            "RiskDistribution2": 0
        }
    },
    "Metadata": {
        "Author": "ND Dynamics",
        "DateCreated": "10/02/2017",
        "IdReference": "Vaupes",
        "NodeCount": 6,
        "Tool": "colombia_create_admin2_climate_demographics_files_IDCOL.R"
    }
}

